$GPRMC,114653.924,V,3554.931,N,07402.499,W,75.5,3.31,260718,,E*4D
$GPGGA,114654.924,3554.931,N,07402.499,W,0,00,,,M,,M,,*54
$GPGLL,3554.931,N,07402.499,W,114655.924,V*35
$GPGSA,A,2,15,12,02,06,13,03,,,,,,,0.3,0.8,0.3*39
$GPGSV,2,1,06,15,71,227,72,12,88,186,64,02,28,011,77,06,27,138,41*76
$GPGSV,2,2,06,13,14,098,76,03,34,310,89*7F
$GPRMC,114659.924,V,3554.932,N,07402.500,W,30.3,3.41,260718,,E*45
$GPGGA,114700.924,3554.932,N,07402.500,W,0,04,0.8,,M,,M,,*74
$GPGLL,3554.932,N,07402.500,W,114701.924,V*37
$GPGSA,A,2,15,12,02,06,13,03,,,,,,,0.1,0.0,0.9*39
$GPGSV,2,1,06,15,84,040,33,12,24,325,81,02,80,001,30,06,52,319,68*74
$GPGSV,2,2,06,13,64,187,44,03,25,130,18*7E
$GPRMC,114705.924,V,3554.933,N,07402.502,W,59.3,3.35,260718,,E*42
$GPGGA,114706.924,3554.933,N,07402.502,W,0,04,0.0,,M,,M,,*79
$GPGLL,3554.933,N,07402.502,W,114707.924,V*32
$GPGSA,A,2,15,12,02,06,13,03,,,,,,,0.8,1.0,0.6*3E
$GPGSV,2,1,06,15,08,247,29,12,72,332,75,02,05,265,68,06,80,232,50*7C
$GPGSV,2,2,06,13,06,307,62,03,75,052,55*7D
$GPRMC,114711.924,V,3554.933,N,07402.503,W,16.8,3.28,260718,,E*4A
$GPGGA,114712.924,3554.933,N,07402.503,W,0,04,1.0,,M,,M,,*7C
$GPGLL,3554.933,N,07402.503,W,114713.924,V*36
$GPGSA,A,2,15,12,02,06,13,03,,,,,,,0.8,0.5,0.4*38
$GPGSV,2,1,06,15,66,105,15,12,81,334,61,02,68,015,17,06,33,115,36*79
$GPGSV,2,2,06,13,37,298,50,03,19,332,67*77
$GPRMC,114717.924,V,3554.934,N,07402.505,W,28.2,3.19,260718,,E*48
$GPGGA,114718.924,3554.934,N,07402.505,W,0,04,0.5,,M,,M,,*73
$GPGLL,3554.934,N,07402.505,W,114719.924,V*3D
$GPGSA,A,2,15,12,02,06,13,03,,,,,,,0.0,0.7,0.8*3E
$GPGSV,2,1,06,15,10,147,73,12,06,159,37,02,40,251,64,06,66,161,74*72
$GPGSV,2,2,06,13,74,034,67,03,65,115,76*7C
$GPRMC,114723.924,V,3554.935,N,07402.507,W,99.4,3.27,260718,,E*4D
$GPGGA,114724.924,3554.935,N,07402.507,W,0,04,0.7,,M,,M,,*7D
$GPGLL,3554.935,N,07402.507,W,114725.924,V*31
$GPGSA,A,3,15,12,02,06,13,03,,,,,,,0.5,0.9,0.2*3E
$GPGSV,2,1,06,15,42,296,57,12,48,033,71,02,39,156,60,06,16,207,54*71
$GPGSV,2,2,06,13,17,126,65,03,13,014,54*78
$GPRMC,114729.924,V,3554.936,N,07402.508,W,28.4,3.38,260718,,E*4F
$GPGGA,114730.924,3554.936,N,07402.508,W,0,04,0.9,,M,,M,,*7A
$GPGLL,3554.936,N,07402.508,W,114731.924,V*38
$GPGSA,A,2,15,12,02,06,13,03,,,,,,,0.8,1.0,0.3*3B
$GPGSV,2,1,06,15,60,096,84,12,07,045,53,02,11,266,43,06,06,349,73*73
$GPGSV,2,2,06,13,18,014,71,03,70,201,47*73
$GPRMC,114735.924,V,3554.937,N,07402.510,W,7.4,3.41,260718,,E*79
$GPGGA,114736.924,3554.937,N,07402.510,W,0,04,1.0,,M,,M,,*7C
$GPGLL,3554.937,N,07402.510,W,114737.924,V*36
$GPGSA,A,3,15,12,02,06,13,03,,,,,,,0.1,0.2,0.6*35
$GPGSV,2,1,06,15,44,000,24,12,10,279,68,02,33,213,17,06,31,091,59*7A
$GPGSV,2,2,06,13,63,331,39,03,49,134,61*7C
$GPRMC,114741.924,V,3554.938,N,07402.511,W,2.0,3.50,260718,,E*75
$GPGGA,114742.924,3554.938,N,07402.511,W,0,04,0.2,,M,,M,,*72
$GPGLL,3554.938,N,07402.511,W,114743.924,V*3B
$GPGSA,A,3,15,12,02,06,13,03,,,,,,,0.2,0.1,0.6*35
$GPGSV,2,1,06,15,59,343,42,12,43,088,19,02,47,209,71,06,53,076,34*70
$GPGSV,2,2,06,13,24,027,22,03,84,116,44*77
$GPRMC,114747.924,V,3554.939,N,07402.512,W,53.8,3.58,260718,,E*45
$GPGGA,114748.924,3554.939,N,07402.512,W,0,04,0.1,,M,,M,,*79
$GPGLL,3554.939,N,07402.512,W,114749.924,V*33
$GPGSA,A,2,15,12,02,06,13,03,,,,,,,0.3,0.2,0.9*39
$GPGSV,2,1,06,15,87,195,79,12,86,331,23,02,62,086,83,06,19,162,30*72
$GPGSV,2,2,06,13,08,282,20,03,28,253,42*74
$GPRMC,114753.924,V,3554.941,N,07402.513,W,53.5,3.67,260718,,E*4F
$GPGGA,114754.924,3554.941,N,07402.513,W,0,04,0.2,,M,,M,,*79
$GPGLL,3554.941,N,07402.513,W,114755.924,V*30
$GPGSA,A,2,15,12,02,06,13,03,,,,,,,0.6,0.8,0.8*37
$GPGSV,2,1,06,15,14,067,38,12,33,070,26,02,40,137,46,06,64,065,80*79
$GPGSV,2,2,06,13,10,259,27,03,25,287,33*7E
$GPRMC,114759.924,V,3554.942,N,07402.514,W,85.5,3.61,260718,,E*4C
$GPGGA,114800.924,3554.942,N,07402.514,W,0,04,0.8,,M,,M,,*79
$GPGLL,3554.942,N,07402.514,W,114801.924,V*3A
$GPGSA,A,2,15,12,02,06,13,03,,,,,,,0.5,0.6,0.5*37
$GPGSV,2,1,06,15,77,343,55,12,61,087,24,02,53,343,77,06,43,247,43*76
$GPGSV,2,2,06,13,36,255,31,03,15,112,51*79
$GPRMC,114805.924,V,3554.944,N,07402.515,W,8.1,3.61,260718,,E*7C
$GPGGA,114806.924,3554.944,N,07402.515,W,0,04,0.6,,M,,M,,*76
$GPGLL,3554.944,N,07402.515,W,114807.924,V*3B
$GPGSA,A,3,15,12,02,06,13,03,,,,,,,0.4,0.1,0.6*33
$GPGSV,2,1,06,15,71,105,32,12,57,207,54,02,50,356,61,06,83,337,60*72
$GPGSV,2,2,06,13,48,275,80,03,60,021,30*7C
$GPRMC,114811.924,V,3554.945,N,07402.516,W,51.4,3.57,260718,,E*47
$GPGGA,114812.924,3554.945,N,07402.516,W,0,04,0.1,,M,,M,,*76
$GPGLL,3554.945,N,07402.516,W,114813.924,V*3C
$GPGSA,A,2,15,12,02,06,13,03,,,,,,,0.8,0.3,0.9*33
$GPGSV,2,1,06,15,75,179,83,12,48,040,15,02,45,202,41,06,75,338,56*78
$GPGSV,2,2,06,13,15,145,45,03,45,072,25*78
$GPRMC,114817.924,V,3554.947,N,07402.517,W,52.5,3.62,260718,,E*46
$GPGGA,114818.924,3554.947,N,07402.517,W,0,04,0.3,,M,,M,,*7D
$GPGLL,3554.947,N,07402.517,W,114819.924,V*35
$GPGSA,A,2,15,12,02,06,13,03,,,,,,,0.7,0.2,0.5*31
$GPGSV,2,1,06,15,05,001,70,12,88,015,61,02,84,034,73,06,65,247,38*79
$GPGSV,2,2,06,13,52,228,41,03,36,020,27*76
$GPRMC,114823.924,V,3554.948,N,07402.518,W,55.1,3.60,260718,,E*40
$GPGGA,114824.924,3554.948,N,07402.518,W,0,04,0.2,,M,,M,,*73
$GPGLL,3554.948,N,07402.518,W,114825.924,V*3A
$GPGSA,A,2,15,12,02,06,13,03,,,,,,,1.0,0.9,0.4*3D
$GPGSV,2,1,06,15,50,328,22,12,76,010,17,02,85,272,21,06,74,279,32*72
$GPGSV,2,2,06,13,07,162,41,03,36,280,86*78
$GPRMC,114829.924,V,3554.950,N,07402.519,W,88.1,3.68,260718,,E*4A
$GPGGA,114830.924,3554.950,N,07402.519,W,0,04,0.9,,M,,M,,*75
$GPGLL,3554.950,N,07402.519,W,114831.924,V*37
$GPGSA,A,3,15,12,02,06,13,03,,,,,,,0.8,0.3,0.8*33
$GPGSV,2,1,06,15,05,059,16,12,79,334,19,02,67,204,50,06,79,070,78*77
$GPGSV,2,2,06,13,88,260,16,03,41,190,16*77
$GPRMC,114835.924,V,3554.952,N,07402.520,W,47.0,3.74,260718,,E*40
$GPGGA,114836.924,3554.952,N,07402.520,W,0,04,0.3,,M,,M,,*71
$GPGLL,3554.952,N,07402.520,W,114837.924,V*39
$GPGSA,A,2,15,12,02,06,13,03,,,,,,,0.4,0.2,0.9*3E
$GPGSV,2,1,06,15,53,292,27,12,08,276,23,02,49,355,86,06,38,015,38*7B
$GPGSV,2,2,06,13,15,189,28,03,22,042,26*72
$GPRMC,114841.924,V,3554.953,N,07402.521,W,10.5,3.75,260718,,E*45
$GPGGA,114842.924,3554.953,N,07402.521,W,0,04,0.2,,M,,M,,*73
$GPGLL,3554.953,N,07402.521,W,114843.924,V*3A
$GPGSA,A,3,15,12,02,06,13,03,,,,,,,0.6,0.7,0.9*38
$GPGSV,2,1,06,15,19,228,64,12,16,122,57,02,23,269,61,06,27,052,25*77
$GPGSV,2,2,06,13,07,136,84,03,87,285,55*71
$GPRMC,114847.924,V,3554.954,N,07402.522,W,33.5,3.41,260718,,E*41
$GPGGA,114848.924,3554.954,N,07402.522,W,0,04,0.7,,M,,M,,*78
$GPGLL,3554.954,N,07402.522,W,114849.924,V*34
$GPGSA,A,2,15,12,02,06,13,03,,,,,,,0.5,0.2,0.7*31
$GPGSV,2,1,06,15,38,084,72,12,73,208,56,02,82,158,55,06,13,242,82*7A
$GPGSV,2,2,06,13,57,133,28,03,19,198,17*79
$GPRMC,114853.924,V,3554.955,N,07402.523,W,49.4,3.39,260718,,E*47
$GPGGA,114854.924,3554.955,N,07402.523,W,0,04,0.2,,M,,M,,*70
$GPGLL,3554.955,N,07402.523,W,114855.924,V*39
$GPGSA,A,2,15,12,02,06,13,03,,,,,,,0.0,0.8,0.3*3A
$GPGSV,2,1,06,15,70,039,76,12,61,249,80,02,86,197,67,06,05,110,68*78
$GPGSV,2,2,06,13,56,352,67,03,21,289,28*72
$GPRMC,114859.924,V,3554.957,N,07402.525,W,93.3,3.56,260718,,E*40
$GPGGA,114900.924,3554.957,N,07402.525,W,0,04,0.8,,M,,M,,*7E
$GPGLL,3554.957,N,07402.525,W,114901.924,V*3D
$GPGSA,A,3,15,12,02,06,13,03,,,,,,,0.7,0.6,0.4*35
$GPGSV,2,1,06,15,33,089,27,12,87,127,20,02,71,006,74,06,20,316,36*72
$GPGSV,2,2,06,13,15,302,57,03,72,125,24*7C
$GPRMC,114905.924,V,3554.958,N,07402.526,W,33.8,3.45,260718,,E*47
$GPGGA,114906.924,3554.958,N,07402.526,W,0,04,0.6,,M,,M,,*7A
$GPGLL,3554.958,N,07402.526,W,114907.924,V*37
$GPGSA,A,3,15,12,02,06,13,03,,,,,,,0.4,0.9,0.8*35
$GPGSV,2,1,06,15,27,024,28,12,53,356,36,02,87,157,64,06,53,108,31*76
$GPGSV,2,2,06,13,62,227,44,03,67,056,86*71
$GPRMC,114911.924,V,3554.959,N,07402.528,W,28.8,3.34,260718,,E*41
$GPGGA,114912.924,3554.959,N,07402.528,W,0,04,0.9,,M,,M,,*7F
$GPGLL,3554.959,N,07402.528,W,114913.924,V*3D
$GPGSA,A,3,15,12,02,06,13,03,,,,,,,0.0,0.5,0.8*3D
$GPGSV,2,1,06,15,63,099,22,12,16,303,79,02,11,052,52,06,18,315,24*7B
$GPGSV,2,2,06,13,28,313,79,03,81,295,22*7C
$GPRMC,114917.924,V,3554.959,N,07402.529,W,44.3,3.28,260718,,E*4A
$GPGGA,114918.924,3554.959,N,07402.529,W,0,04,0.5,,M,,M,,*78
$GPGLL,3554.959,N,07402.529,W,114919.924,V*36
$GPGSA,A,2,15,12,02,06,13,03,,,,,,,0.4,0.7,0.1*33
$GPGSV,2,1,06,15,78,057,15,12,62,271,47,02,40,111,43,06,34,075,70*75
$GPGSV,2,2,06,13,48,143,81,03,77,050,72*7D
$GPRMC,114923.924,V,3554.960,N,07402.531,W,10.5,3.34,260718,,E*44
$GPGGA,114924.924,3554.960,N,07402.531,W,0,04,0.7,,M,,M,,*76
$GPGLL,3554.960,N,07402.531,W,114925.924,V*3A
$GPGSA,A,3,15,12,02,06,13,03,,,,,,,0.4,0.7,0.5*36
$GPGSV,2,1,06,15,48,179,78,12,75,180,72,02,05,055,82,06,34,358,68*75
$GPGSV,2,2,06,13,53,284,46,03,69,202,25*7C
$GPRMC,114929.924,V,3554.961,N,07402.532,W,19.0,3.24,260718,,E*41
$GPGGA,114930.924,3554.961,N,07402.532,W,0,04,0.7,,M,,M,,*71
$GPGLL,3554.961,N,07402.532,W,114931.924,V*3D
$GPGSA,A,2,15,12,02,06,13,03,,,,,,,0.7,0.3,0.4*31
$GPGSV,2,1,06,15,10,241,23,12,29,040,37,02,61,220,88,06,55,277,66*76
$GPGSV,2,2,06,13,30,139,56,03,41,108,81*70
$GPRMC,114935.924,V,3554.961,N,07402.534,W,66.6,3.13,260718,,E*40
$GPGGA,114936.924,3554.961,N,07402.534,W,0,04,0.3,,M,,M,,*75
$GPGLL,3554.961,N,07402.534,W,114937.924,V*3D
$GPGSA,A,3,15,12,02,06,13,03,,,,,,,0.3,0.0,0.4*37
$GPGSV,2,1,06,15,36,355,80,12,05,128,21,02,80,297,55,06,67,136,52*7A
$GPGSV,2,2,06,13,79,234,19,03,22,006,74*78
$GPRMC,114941.924,V,3554.962,N,07402.536,W,45.6,3.02,260718,,E*43
$GPGGA,114942.924,3554.962,N,07402.536,W,0,04,0.0,,M,,M,,*74
$GPGLL,3554.962,N,07402.536,W,114943.924,V*3F
$GPGSA,A,3,15,12,02,06,13,03,,,,,,,0.2,0.9,0.6*3D
$GPGSV,2,1,06,15,27,005,87,12,29,243,83,02,14,344,71,06,22,295,15*7F
$GPGSV,2,2,06,13,60,297,66,03,23,132,38*7E
$GPRMC,114947.924,V,3554.962,N,07402.538,W,67.7,2.99,260718,,E*49
$GPGGA,114948.924,3554.962,N,07402.538,W,0,04,0.9,,M,,M,,*79
$GPGLL,3554.962,N,07402.538,W,114949.924,V*3B
$GPGSA,A,2,15,12,02,06,13,03,,,,,,,0.4,0.4,0.2*33
$GPGSV,2,1,06,15,30,187,73,12,87,347,59,02,83,074,23,06,07,186,40*70
$GPGSV,2,2,06,13,26,139,52,03,58,009,34*75
$GPRMC,114953.924,V,3554.961,N,07402.540,W,5.9,2.89,260718,,E*7B
$GPGGA,114954.924,3554.961,N,07402.540,W,0,04,0.4,,M,,M,,*75
$GPGLL,3554.961,N,07402.540,W,114955.924,V*3A
$GPGSA,A,2,15,12,02,06,13,03,,,,,,,0.3,0.6,0.2*36
$GPGSV,2,1,06,15,74,083,37,12,28,038,42,02,15,134,69,06,07,223,21*7E
$GPGSV,2,2,06,13,47,277,42,03,62,169,72*76
$GPRMC,114959.924,V,3554.961,N,07402.541,W,74.7,2.79,260718,,E*47
$GPGGA,115000.924,3554.961,N,07402.541,W,0,04,0.6,,M,,M,,*7F
$GPGLL,3554.961,N,07402.541,W,115001.924,V*32
$GPGSA,A,3,15,12,02,06,13,03,,,,,,,0.6,0.4,0.2*30
$GPGSV,2,1,06,15,88,320,82,12,63,240,50,02,68,346,71,06,20,099,32*78
$GPGSV,2,2,06,13,27,075,36,03,18,121,66*77
$GPRMC,115005.924,V,3554.960,N,07402.543,W,98.7,2.85,260718,,E*44
$GPGGA,115006.924,3554.960,N,07402.543,W,0,04,0.4,,M,,M,,*78
$GPGLL,3554.960,N,07402.543,W,115007.924,V*37
$GPGSA,A,3,15,12,02,06,13,03,,,,,,,0.3,0.7,0.3*37
$GPGSV,2,1,06,15,38,015,70,12,15,108,21,02,78,146,53,06,84,275,85*72
$GPGSV,2,2,06,13,12,012,73,03,14,052,64*7A
$GPRMC,115011.924,V,3554.960,N,07402.545,W,89.6,2.95,260718,,E*47
$GPGGA,115012.924,3554.960,N,07402.545,W,0,04,0.7,,M,,M,,*78
$GPGLL,3554.960,N,07402.545,W,115013.924,V*34
$GPGSA,A,2,15,12,02,06,13,03,,,,,,,0.2,0.5,0.3*35
$GPGSV,2,1,06,15,26,314,18,12,47,228,43,02,13,042,55,06,86,027,26*73
$GPGSV,2,2,06,13,77,186,81,03,49,174,60*71
$GPRMC,115017.924,V,3554.960,N,07402.547,W,21.5,2.97,260718,,E*40
$GPGGA,115018.924,3554.960,N,07402.547,W,0,04,0.5,,M,,M,,*72
$GPGLL,3554.960,N,07402.547,W,115019.924,V*3C
$GPGSA,A,2,15,12,02,06,13,03,,,,,,,0.1,0.3,0.5*36
$GPGSV,2,1,06,15,23,357,43,12,10,134,50,02,21,051,83,06,07,159,75*7E
$GPGSV,2,2,06,13,80,062,49,03,40,292,88*72
$GPRMC,115023.924,V,3554.960,N,07402.548,W,9.9,2.95,260718,,E*7C
$GPGGA,115024.924,3554.960,N,07402.548,W,0,04,0.3,,M,,M,,*74
$GPGLL,3554.960,N,07402.548,W,115025.924,V*3C
$GPGSA,A,2,15,12,02,06,13,03,,,,,,,0.5,0.7,0.1*32
$GPGSV,2,1,06,15,43,274,83,12,57,343,85,02,83,249,46,06,37,134,50*78
$GPGSV,2,2,06,13,65,005,65,03,13,286,62*71
$GPRMC,115029.924,V,3554.960,N,07402.550,W,76.4,2.94,260718,,E*4B
$GPGGA,115030.924,3554.960,N,07402.550,W,0,04,0.7,,M,,M,,*7C
$GPGLL,3554.960,N,07402.550,W,115031.924,V*30
$GPGSA,A,3,15,12,02,06,13,03,,,,,,,0.3,0.9,1.0*3B
$GPGSV,2,1,06,15,32,108,48,12,26,237,16,02,39,174,45,06,45,001,30*74
$GPGSV,2,2,06,13,39,084,41,03,74,197,27*74
$GPRMC,115035.924,V,3554.959,N,07402.552,W,31.4,2.87,260718,,E*4F
$GPGGA,115036.924,3554.959,N,07402.552,W,0,04,0.9,,M,,M,,*7C
$GPGLL,3554.959,N,07402.552,W,115037.924,V*3E
$GPGSA,A,2,15,12,02,06,13,03,,,,,,,0.6,0.7,0.7*37
$GPGSV,2,1,06,15,83,095,69,12,55,096,67,02,63,331,32,06,75,101,26*7A
$GPGSV,2,2,06,13,68,355,54,03,40,063,57*71
$GPRMC,115041.924,V,3554.959,N,07402.554,W,25.7,2.81,260718,,E*4A
$GPGGA,115042.924,3554.959,N,07402.554,W,0,04,0.7,,M,,M,,*77
$GPGLL,3554.959,N,07402.554,W,115043.924,V*3B
$GPGSA,A,3,15,12,02,06,13,03,,,,,,,0.1,0.4,0.7*32
$GPGSV,2,1,06,15,41,264,17,12,13,294,84,02,55,024,43,06,82,217,70*75
$GPGSV,2,2,06,13,28,201,51,03,39,114,41*78
$GPRMC,115047.924,V,3554.958,N,07402.555,W,3.3,2.91,260718,,E*7D
$GPGGA,115048.924,3554.958,N,07402.555,W,0,04,0.4,,M,,M,,*7E
$GPGLL,3554.958,N,07402.555,W,115049.924,V*31
$GPGSA,A,2,15,12,02,06,13,03,,,,,,,1.0,0.3,0.7*34
$GPGSV,2,1,06,15,30,126,44,12,28,013,67,02,29,032,87,06,76,042,81*7B
$GPGSV,2,2,06,13,05,155,73,03,11,158,43*75
$GPRMC,115053.924,V,3554.958,N,07402.557,W,43.7,2.94,260718,,E*4F
$GPGGA,115054.924,3554.958,N,07402.557,W,0,04,0.3,,M,,M,,*76
$GPGLL,3554.958,N,07402.557,W,115055.924,V*3E
$GPGSA,A,2,15,12,02,06,13,03,,,,,,,0.3,0.9,0.8*33
$GPGSV,2,1,06,15,45,278,24,12,84,181,56,02,46,162,19,06,29,263,19*79
$GPGSV,2,2,06,13,37,070,46,03,11,089,21*7D
$GPRMC,115059.924,V,3554.958,N,07402.559,W,90.6,2.93,260718,,E*43
$GPGGA,115100.924,3554.958,N,07402.559,W,0,04,0.9,,M,,M,,*72
$GPGLL,3554.958,N,07402.559,W,115101.924,V*30
$GPGSA,A,2,15,12,02,06,13,03,,,,,,,0.3,0.7,0.5*30
$GPGSV,2,1,06,15,34,102,43,12,65,069,88,02,52,270,24,06,09,237,28*71
$GPGSV,2,2,06,13,77,168,81,03,06,283,25*70
$GPRMC,115105.924,V,3554.958,N,07402.561,W,29.3,2.90,260718,,E*44
$GPGGA,115106.924,3554.958,N,07402.561,W,0,04,0.7,,M,,M,,*71
$GPGLL,3554.958,N,07402.561,W,115107.924,V*3D
$GPGSA,A,3,15,12,02,06,13,03,,,,,,,0.4,0.2,0.5*33
$GPGSV,2,1,06,15,47,087,54,12,51,088,31,02,88,051,73,06,57,325,67*73
$GPGSV,2,2,06,13,15,026,78,03,33,257,73*75
$GPRMC,115111.924,V,3554.957,N,07402.563,W,47.7,2.87,260718,,E*46
$GPGGA,115112.924,3554.957,N,07402.563,W,0,04,0.2,,M,,M,,*7C
$GPGLL,3554.957,N,07402.563,W,115113.924,V*35
$GPGSA,A,2,15,12,02,06,13,03,,,,,,,0.6,0.0,1.0*36
$GPGSV,2,1,06,15,43,109,68,12,53,246,50,02,87,076,63,06,12,232,82*7C
$GPGSV,2,2,06,13,32,289,60,03,24,322,27*7A
$GPRMC,115117.924,V,3554.957,N,07402.564,W,64.2,2.97,260718,,E*42
$GPGGA,115118.924,3554.957,N,07402.564,W,0,04,0.0,,M,,M,,*73
$GPGLL,3554.957,N,07402.564,W,115119.924,V*38
$GPGSA,A,3,15,12,02,06,13,03,,,,,,,0.2,0.5,0.5*32
$GPGSV,2,1,06,15,76,187,51,12,83,112,37,02,63,250,65,06,88,129,28*78
$GPGSV,2,2,06,13,88,326,88,03,54,337,54*7E
$GPRMC,115123.924,V,3554.957,N,07402.566,W,82.9,2.86,260718,,E*44
$GPGGA,115124.924,3554.957,N,07402.566,W,0,04,0.5,,M,,M,,*7B
$GPGLL,3554.957,N,07402.566,W,115125.924,V*35
$GPGSA,A,2,15,12,02,06,13,03,,,,,,,0.4,0.5,0.3*33
$GPGSV,2,1,06,15,82,311,86,12,41,185,40,02,70,159,20,06,23,131,54*7E
$GPGSV,2,2,06,13,57,034,77,03,54,160,58*70
$GPRMC,115129.924,V,3554.957,N,07402.568,W,11.0,2.84,260718,,E*41
$GPGGA,115130.924,3554.957,N,07402.568,W,0,04,0.5,,M,,M,,*70
$GPGLL,3554.957,N,07402.568,W,115131.924,V*3E
$GPGSA,A,2,15,12,02,06,13,03,,,,,,,0.6,0.9,0.6*38
$GPGSV,2,1,06,15,51,058,88,12,64,246,88,02,32,286,20,06,20,066,55*79
$GPGSV,2,2,06,13,35,324,78,03,61,122,44*74
$GPRMC,115135.924,V,3554.956,N,07402.570,W,72.0,2.78,260718,,E*42
$GPGGA,115136.924,3554.956,N,07402.570,W,0,04,0.9,,M,,M,,*72
$GPGLL,3554.956,N,07402.570,W,115137.924,V*30
$GPGSA,A,3,15,12,02,06,13,03,,,,,,,0.3,0.2,0.4*35
$GPGSV,2,1,06,15,51,203,83,12,71,160,78,02,63,314,76,06,60,049,50*73
$GPGSV,2,2,06,13,50,179,47,03,38,273,47*79
$GPRMC,115141.924,V,3554.956,N,07402.571,W,65.8,2.86,260718,,E*4F
$GPGGA,115142.924,3554.956,N,07402.571,W,0,04,0.2,,M,,M,,*7B
$GPGLL,3554.956,N,07402.571,W,115143.924,V*32
$GPGSA,A,2,15,12,02,06,13,03,,,,,,,0.5,0.8,0.8*34
$GPGSV,2,1,06,15,47,249,70,12,59,127,51,02,61,068,69,06,73,158,49*7B
$GPGSV,2,2,06,13,48,125,52,03,14,249,52*7E
$GPRMC,115147.924,V,3554.955,N,07402.573,W,57.1,2.77,260718,,E*4E
$GPGGA,115148.924,3554.955,N,07402.573,W,0,04,0.8,,M,,M,,*7A
$GPGLL,3554.955,N,07402.573,W,115149.924,V*39
$GPGSA,A,2,15,12,02,06,13,03,,,,,,,0.1,0.1,0.6*37
$GPGSV,2,1,06,15,31,164,40,12,67,315,31,02,51,121,80,06,22,146,28*79
$GPGSV,2,2,06,13,37,307,56,03,13,312,86*71
$GPRMC,115153.924,V,3554.954,N,07402.575,W,82.4,2.71,260718,,E*47
$GPGGA,115154.924,3554.954,N,07402.575,W,0,04,0.1,,M,,M,,*79
$GPGLL,3554.954,N,07402.575,W,115155.924,V*33
$GPGSA,A,3,15,12,02,06,13,03,,,,,,,0.0,0.5,0.4*31
$GPGSV,2,1,06,15,23,189,88,12,39,076,63,02,62,148,40,06,75,302,19*76
$GPGSV,2,2,06,13,51,243,78,03,31,048,36*7B
$GPRMC,115159.924,V,3554.953,N,07402.576,W,92.4,2.72,260718,,E*4B
$GPGGA,115200.924,3554.953,N,07402.576,W,0,04,0.5,,M,,M,,*7B
$GPGLL,3554.953,N,07402.576,W,115201.924,V*35
$GPGSA,A,3,15,12,02,06,13,03,,,,,,,0.6,0.8,0.3*3D
$GPGSV,2,1,06,15,09,325,51,12,15,262,86,02,38,147,21,06,87,224,23*7A
$GPGSV,2,2,06,13,15,089,71,03,75,310,18*74
$GPRMC,115205.924,V,3554.953,N,07402.578,W,58.1,2.83,260718,,E*42
$GPGGA,115206.924,3554.953,N,07402.578,W,0,04,0.8,,M,,M,,*7E
$GPGLL,3554.953,N,07402.578,W,115207.924,V*3D
$GPGSA,A,3,15,12,02,06,13,03,,,,,,,0.6,0.8,0.1*3F
$GPGSV,2,1,06,15,56,274,69,12,38,278,75,02,36,154,33,06,08,089,68*74
$GPGSV,2,2,06,13,77,084,50,03,06,336,53*71
$GPRMC,115211.924,V,3554.952,N,07402.580,W,58.8,2.73,260718,,E*47
$GPGGA,115212.924,3554.952,N,07402.580,W,0,04,0.8,,M,,M,,*7D
$GPGLL,3554.952,N,07402.580,W,115213.924,V*3E
$GPGSA,A,2,15,12,02,06,13,03,,,,,,,0.6,0.0,0.5*32
$GPGSV,2,1,06,15,86,300,36,12,26,340,84,02,84,066,65,06,84,004,88*7F
$GPGSV,2,2,06,13,39,301,58,03,42,329,50*70
$GPRMC,115217.924,V,3554.951,N,07402.581,W,26.4,2.68,260718,,E*4C
$GPGGA,115218.924,3554.951,N,07402.581,W,0,04,0.0,,M,,M,,*7D
$GPGLL,3554.951,N,07402.581,W,115219.924,V*36
$GPGSA,A,2,15,12,02,06,13,03,,,,,,,0.0,0.2,0.7*34
$GPGSV,2,1,06,15,25,247,28,12,31,122,62,02,59,102,24,06,64,052,71*7E
$GPGSV,2,2,06,13,65,341,18,03,86,271,79*76
$GPRMC,115223.924,V,3554.951,N,07402.583,W,91.3,2.79,260718,,E*42
$GPGGA,115224.924,3554.951,N,07402.583,W,0,04,0.2,,M,,M,,*72
$GPGLL,3554.951,N,07402.583,W,115225.924,V*3B
$GPGSA,A,3,15,12,02,06,13,03,,,,,,,0.6,0.6,0.1*31
$GPGSV,2,1,06,15,41,191,86,12,18,264,89,02,09,099,85,06,41,040,74*73
$GPGSV,2,2,06,13,43,232,55,03,37,221,36*7A
$GPRMC,115229.924,V,3554.950,N,07402.585,W,68.6,2.80,260718,,E*4A
$GPGGA,115230.924,3554.950,N,07402.585,W,0,04,0.6,,M,,M,,*74
$GPGLL,3554.950,N,07402.585,W,115231.924,V*39
$GPGSA,A,2,15,12,02,06,13,03,,,,,,,0.8,0.1,0.3*3B
$GPGSV,2,1,06,15,41,119,48,12,36,013,15,02,83,193,69,06,11,038,82*72
$GPGSV,2,2,06,13,65,220,71,03,57,273,33*7F
$GPRMC,115235.924,V,3554.950,N,07402.586,W,31.1,2.78,260718,,E*48
$GPGGA,115236.924,3554.950,N,07402.586,W,0,04,0.1,,M,,M,,*76
$GPGLL,3554.950,N,07402.586,W,115237.924,V*3C
$GPGSA,A,3,15,12,02,06,13,03,,,,,,,0.8,0.6,0.9*37
$GPGSV,2,1,06,15,84,008,83,12,52,265,27,02,36,216,27,06,56,273,63*76
$GPGSV,2,2,06,13,83,184,31,03,11,253,42*78
$GPRMC,115241.924,V,3554.949,N,07402.588,W,46.6,2.84,260718,,E*49
$GPGGA,115242.924,3554.949,N,07402.588,W,0,04,0.6,,M,,M,,*74
$GPGLL,3554.949,N,07402.588,W,115243.924,V*39
$GPGSA,A,2,15,12,02,06,13,03,,,,,,,0.9,0.1,0.5*3C
$GPGSV,2,1,06,15,25,113,33,12,42,131,83,02,34,147,30,06,57,246,36*74
$GPGSV,2,2,06,13,85,140,76,03,48,177,40*7E
$GPRMC,115247.924,V,3554.949,N,07402.590,W,75.2,2.90,260718,,E*47
$GPGGA,115248.924,3554.949,N,07402.590,W,0,04,0.1,,M,,M,,*70
$GPGLL,3554.949,N,07402.590,W,115249.924,V*3A
$GPGSA,A,3,15,12,02,06,13,03,,,,,,,0.2,0.9,0.9*32
$GPGSV,2,1,06,15,46,351,28,12,87,311,70,02,61,264,89,06,65,325,67*7B
$GPGSV,2,2,06,13,62,160,75,03,43,030,59*77
$GPRMC,115253.924,V,3554.949,N,07402.592,W,7.1,2.99,260718,,E*7F
$GPGGA,115254.924,3554.949,N,07402.592,W,0,04,0.9,,M,,M,,*77
$GPGLL,3554.949,N,07402.592,W,115255.924,V*35
$GPGSA,A,2,15,12,02,06,13,03,,,,,,,0.8,0.3,0.4*3E
$GPGSV,2,1,06,15,31,009,66,12,79,046,88,02,70,112,72,06,40,281,54*76
$GPGSV,2,2,06,13,08,065,81,03,88,180,44*75
$GPRMC,115259.924,V,3554.949,N,07402.593,W,7.0,3.10,260718,,E*75
$GPGGA,115300.924,3554.949,N,07402.593,W,0,04,0.3,,M,,M,,*7C
$GPGLL,3554.949,N,07402.593,W,115301.924,V*34
$GPGSA,A,3,15,12,02,06,13,03,,,,,,,0.5,0.8,0.2*3F
$GPGSV,2,1,06,15,80,280,44,12,49,309,89,02,82,192,88,06,44,236,41*79
$GPGSV,2,2,06,13,87,346,34,03,16,030,77*73
$GPRMC,115305.924,V,3554.949,N,07402.595,W,21.6,3.08,260718,,E*40
$GPGGA,115306.924,3554.949,N,07402.595,W,0,04,0.8,,M,,M,,*77
$GPGLL,3554.949,N,07402.595,W,115307.924,V*34
$GPGSA,A,2,15,12,02,06,13,03,,,,,,,0.3,0.7,0.8*3D
$GPGSV,2,1,06,15,11,261,29,12,86,289,16,02,71,237,84,06,67,296,28*71
$GPGSV,2,2,06,13,08,184,60,03,88,101,89*7C
$GPRMC,115311.924,V,3554.949,N,07402.597,W,43.4,2.99,260718,,E*48
$GPGGA,115312.924,3554.949,N,07402.597,W,0,04,0.7,,M,,M,,*7F
$GPGLL,3554.949,N,07402.597,W,115313.924,V*33
$GPGSA,A,2,15,12,02,06,13,03,,,,,,,0.2,0.9,0.1*3B
$GPGSV,2,1,06,15,66,301,54,12,34,339,21,02,65,357,83,06,10,103,20*79
$GPGSV,2,2,06,13,83,033,26,03,36,036,49*7C
$GPRMC,115317.924,V,3554.949,N,07402.599,W,24.0,3.00,260718,,E*44
$GPGGA,115318.924,3554.949,N,07402.599,W,0,04,0.9,,M,,M,,*75
$GPGLL,3554.949,N,07402.599,W,115319.924,V*37
$GPGSA,A,2,15,12,02,06,13,03,,,,,,,0.0,0.9,0.9*31
$GPGSV,2,1,06,15,46,159,28,12,63,286,27,02,81,318,69,06,86,213,24*72
$GPGSV,2,2,06,13,41,079,44,03,40,086,15*7B
$GPRMC,115323.924,V,3554.949,N,07402.601,W,6.4,3.02,260718,,E*77
$GPGGA,115324.924,3554.949,N,07402.601,W,0,04,0.9,,M,,M,,*78
$GPGLL,3554.949,N,07402.601,W,115325.924,V*3A
$GPGSA,A,3,15,12,02,06,13,03,,,,,,,0.8,0.9,0.5*34
$GPGSV,2,1,06,15,32,348,58,12,51,003,70,02,14,186,45,06,31,189,37*71
$GPGSV,2,2,06,13,08,042,52,03,70,164,22*73
$GPRMC,115329.924,V,3554.949,N,07402.602,W,46.1,2.92,260718,,E*47
$GPGGA,115330.924,3554.949,N,07402.602,W,0,04,0.9,,M,,M,,*7E
$GPGLL,3554.949,N,07402.602,W,115331.924,V*3C
$GPGSA,A,2,15,12,02,06,13,03,,,,,,,0.4,0.3,0.3*35
$GPGSV,2,1,06,15,40,100,42,12,86,158,26,02,71,111,61,06,30,194,73*71
$GPGSV,2,2,06,13,15,149,60,03,68,345,63*79
$GPRMC,115335.924,V,3554.949,N,07402.604,W,49.4,2.97,260718,,E*43
$GPGGA,115336.924,3554.949,N,07402.604,W,0,04,0.3,,M,,M,,*74
$GPGLL,3554.949,N,07402.604,W,115337.924,V*3C
$GPGSA,A,3,15,12,02,06,13,03,,,,,,,1.0,0.7,0.2*34
$GPGSV,2,1,06,15,07,145,57,12,57,114,87,02,27,142,39,06,13,127,48*71
$GPGSV,2,2,06,13,29,273,60,03,76,230,37*71
$GPRMC,115341.924,V,3554.949,N,07402.606,W,7.0,3.02,260718,,E*71
$GPGGA,115342.924,3554.949,N,07402.606,W,0,04,0.7,,M,,M,,*71
$GPGLL,3554.949,N,07402.606,W,115343.924,V*3D
$GPGSA,A,3,15,12,02,06,13,03,,,,,,,0.8,0.7,0.6*39
$GPGSV,2,1,06,15,50,138,84,12,21,042,84,02,35,222,22,06,79,038,69*7B
$GPGSV,2,2,06,13,45,287,49,03,21,175,68*71
$GPRMC,115347.924,V,3554.949,N,07402.608,W,47.8,2.93,260718,,E*4C
$GPGGA,115348.924,3554.949,N,07402.608,W,0,04,0.7,,M,,M,,*75
$GPGLL,3554.949,N,07402.608,W,115349.924,V*39
$GPGSA,A,3,15,12,02,06,13,03,,,,,,,0.4,0.6,0.2*30
$GPGSV,2,1,06,15,17,019,58,12,21,302,66,02,73,047,17,06,88,296,66*72
$GPGSV,2,2,06,13,25,204,71,03,58,320,18*7C
$GPRMC,115353.924,V,3554.948,N,07402.609,W,48.2,2.82,260718,,E*4C
$GPGGA,115354.924,3554.948,N,07402.609,W,0,04,0.6,,M,,M,,*79
$GPGLL,3554.948,N,07402.609,W,115355.924,V*34
$GPGSA,A,2,15,12,02,06,13,03,,,,,,,0.4,0.8,0.6*3B
$GPGSV,2,1,06,15,11,089,18,12,40,037,47,02,65,287,74,06,42,095,15*77
$GPGSV,2,2,06,13,34,270,63,03,52,347,42*78
$GPRMC,115359.924,V,3554.948,N,07402.611,W,52.1,2.75,260718,,E*4F
$GPGGA,115400.924,3554.948,N,07402.611,W,0,04,0.8,,M,,M,,*78
$GPGLL,3554.948,N,07402.611,W,115401.924,V*3B
$GPGSA,A,2,15,12,02,06,13,03,,,,,,,0.4,0.8,0.5*38
$GPGSV,2,1,06,15,26,133,47,12,14,113,30,02,19,063,61,06,11,231,46*74
$GPGSV,2,2,06,13,58,079,58,03,44,260,76*75
$GPRMC,115405.924,V,3554.947,N,07402.613,W,42.8,2.83,260718,,E*4D
$GPGGA,115406.924,3554.947,N,07402.613,W,0,04,0.8,,M,,M,,*73
$GPGLL,3554.947,N,07402.613,W,115407.924,V*30
$GPGSA,A,2,15,12,02,06,13,03,,,,,,,0.8,0.4,0.4*39
$GPGSV,2,1,06,15,62,271,19,12,13,349,23,02,85,036,25,06,14,319,88*7B
$GPGSV,2,2,06,13,68,212,15,03,12,027,69*7C
$GPRMC,115411.924,V,3554.946,N,07402.615,W,24.5,2.74,260718,,E*4A
$GPGGA,115412.924,3554.946,N,07402.615,W,0,04,0.4,,M,,M,,*7D
$GPGLL,3554.946,N,07402.615,W,115413.924,V*32
$GPGSA,A,2,15,12,02,06,13,03,,,,,,,0.3,1.0,0.5*36
$GPGSV,2,1,06,15,81,038,80,12,75,181,47,02,80,207,82,06,17,142,25*7D
$GPGSV,2,2,06,13,45,029,69,03,27,014,23*7A
$GPRMC,115417.924,V,3554.946,N,07402.616,W,66.6,2.83,260718,,E*42
$GPGGA,115418.924,3554.946,N,07402.616,W,0,04,1.0,,M,,M,,*71
$GPGLL,3554.946,N,07402.616,W,115419.924,V*3B
$GPGSA,A,2,15,12,02,06,13,03,,,,,,,0.3,0.5,0.6*31
$GPGSV,2,1,06,15,21,230,32,12,69,204,24,02,67,139,64,06,89,084,34*71
$GPGSV,2,2,06,13,49,176,60,03,20,314,74*72
$GPRMC,115423.924,V,3554.945,N,07402.618,W,25.0,2.77,260718,,E*42
$GPGGA,115424.924,3554.945,N,07402.618,W,0,04,0.5,,M,,M,,*77
$GPGLL,3554.945,N,07402.618,W,115425.924,V*39
$GPGSA,A,2,15,12,02,06,13,03,,,,,,,0.2,0.8,0.5*3E
$GPGSV,2,1,06,15,27,168,72,12,33,136,30,02,30,048,59,06,20,275,72*73
$GPGSV,2,2,06,13,26,081,79,03,70,279,76*77
$GPRMC,115429.924,V,3554.945,N,07402.620,W,39.4,2.78,260718,,E*45
$GPGGA,115430.924,3554.945,N,07402.620,W,0,04,0.8,,M,,M,,*74
$GPGLL,3554.945,N,07402.620,W,115431.924,V*37
$GPGSA,A,2,15,12,02,06,13,03,,,,,,,0.5,0.7,0.5*36
$GPGSV,2,1,06,15,73,000,27,12,09,307,65,02,74,339,39,06,42,199,64*75
$GPGSV,2,2,06,13,87,349,16,03,29,318,43*7E
$GPRMC,115435.924,V,3554.944,N,07402.621,W,9.4,2.85,260718,,E*79
$GPGGA,115436.924,3554.944,N,07402.621,W,0,04,0.7,,M,,M,,*7D
$GPGLL,3554.944,N,07402.621,W,115437.924,V*31
$GPGSA,A,2,15,12,02,06,13,03,,,,,,,0.4,0.7,0.1*33
$GPGSV,2,1,06,15,28,259,38,12,72,289,52,02,06,013,63,06,34,273,85*7C
$GPGSV,2,2,06,13,45,310,80,03,06,003,63*75
$GPRMC,115441.924,V,3554.944,N,07402.623,W,84.0,2.95,260718,,E*48
$GPGGA,115442.924,3554.944,N,07402.623,W,0,04,0.7,,M,,M,,*7C
$GPGLL,3554.944,N,07402.623,W,115443.924,V*30
$GPGSA,A,2,15,12,02,06,13,03,,,,,,,0.7,0.9,0.5*3A
$GPGSV,2,1,06,15,53,050,40,12,80,176,67,02,28,065,61,06,71,284,65*74
$GPGSV,2,2,06,13,79,219,46,03,34,343,41*7E
$GPRMC,115447.924,V,3554.944,N,07402.625,W,60.5,3.06,260718,,E*4C
$GPGGA,115448.924,3554.944,N,07402.625,W,0,04,0.9,,M,,M,,*7E
$GPGLL,3554.944,N,07402.625,W,115449.924,V*3C
$GPGSA,A,2,15,12,02,06,13,03,,,,,,,0.3,0.3,0.3*32
$GPGSV,2,1,06,15,39,336,53,12,17,245,75,02,55,289,55,06,27,264,52*73
$GPGSV,2,2,06,13,34,350,30,03,08,125,23*73
$GPRMC,115453.924,V,3554.943,N,07402.626,W,5.0,2.61,260718,,E*7B
$GPGGA,115454.924,3554.943,N,07402.626,W,0,04,0.3,,M,,M,,*7D
$GPGLL,3554.943,N,07402.626,W,115455.924,V*35
$GPGSA,A,2,15,12,02,06,13,03,,,,,,,0.7,0.0,0.4*32
$GPGSV,2,1,06,15,55,091,63,12,08,241,42,02,56,357,45,06,36,140,80*70
$GPGSV,2,2,06,13,13,268,26,03,63,057,60*75
$GPRMC,115459.924,V,3554.942,N,07402.628,W,93.0,2.46,260718,,E*44
$GPGGA,115500.924,3554.942,N,07402.628,W,0,04,0.0,,M,,M,,*71
$GPGLL,3554.942,N,07402.628,W,115501.924,V*3A
$GPGSA,A,2,15,12,02,06,13,03,,,,,,,0.5,0.6,0.6*34
$GPGSV,2,1,06,15,78,086,17,12,37,036,22,02,39,060,20,06,39,348,47*71
$GPGSV,2,2,06,13,22,283,70,03,53,050,74*70
$GPRMC,115505.924,V,3554.940,N,07402.629,W,20.9,2.38,260718,,E*47
$GPGGA,115506.924,3554.940,N,07402.629,W,0,04,0.6,,M,,M,,*72
$GPGLL,3554.940,N,07402.629,W,115507.924,V*3F
$GPGSA,A,3,15,12,02,06,13,03,,,,,,,0.1,1.0,0.4*34
$GPGSV,2,1,06,15,06,146,86,12,16,163,66,02,64,213,71,06,73,142,87*7F
$GPGSV,2,2,06,13,38,261,88,03,19,086,63*73
$GPRMC,115511.924,V,3554.939,N,07402.630,W,70.1,2.48,260718,,E*4E
$GPGGA,115512.924,3554.939,N,07402.630,W,0,04,1.0,,M,,M,,*76
$GPGLL,3554.939,N,07402.630,W,115513.924,V*3C
$GPGSA,A,2,15,12,02,06,13,03,,,,,,,0.2,0.8,0.3*38
$GPGSV,2,1,06,15,89,061,25,12,34,307,71,02,72,157,84,06,34,349,26*7C
$GPGSV,2,2,06,13,57,312,50,03,60,209,52*73
$GPRMC,115517.924,V,3554.938,N,07402.631,W,30.7,2.48,260718,,E*4A
$GPGGA,115518.924,3554.938,N,07402.631,W,0,04,0.8,,M,,M,,*75
$GPGLL,3554.938,N,07402.631,W,115519.924,V*36
$GPGSA,A,2,15,12,02,06,13,03,,,,,,,0.5,0.1,0.9*3C
$GPGSV,2,1,06,15,30,263,33,12,23,035,20,02,31,339,55,06,82,067,50*7B
$GPGSV,2,2,06,13,12,197,34,03,89,274,53*73
$GPRMC,115523.924,V,3554.937,N,07402.633,W,9.3,2.59,260718,,E*7E
$GPGGA,115524.924,3554.937,N,07402.633,W,0,04,0.1,,M,,M,,*7E
$GPGLL,3554.937,N,07402.633,W,115525.924,V*34
$GPGSA,A,2,15,12,02,06,13,03,,,,,,,1.0,0.4,0.4*30
$GPGSV,2,1,06,15,64,301,63,12,49,219,57,02,21,030,69,06,55,163,69*7B
$GPGSV,2,2,06,13,71,258,33,03,12,182,34*78
$GPRMC,115529.924,V,3554.935,N,07402.634,W,46.2,2.52,260718,,E*40
$GPGGA,115530.924,3554.935,N,07402.634,W,0,04,0.4,,M,,M,,*7B
$GPGLL,3554.935,N,07402.634,W,115531.924,V*34
$GPGSA,A,3,15,12,02,06,13,03,,,,,,,0.8,0.3,0.1*3A
$GPGSV,2,1,06,15,29,013,43,12,71,314,23,02,57,226,87,06,29,052,20*75
$GPGSV,2,2,06,13,48,076,18,03,88,330,77*7A
$GPRMC,115535.924,V,3554.934,N,07402.635,W,18.0,2.50,260718,,E*46
$GPGGA,115536.924,3554.934,N,07402.635,W,0,04,0.3,,M,,M,,*7A
$GPGLL,3554.934,N,07402.635,W,115537.924,V*32
$GPGSA,A,2,15,12,02,06,13,03,,,,,,,0.7,0.6,0.3*33
$GPGSV,2,1,06,15,56,117,51,12,73,089,60,02,54,235,47,06,57,071,76*7F
$GPGSV,2,2,06,13,72,116,36,03,24,116,89*79
$GPRMC,115541.924,V,3554.933,N,07402.636,W,86.2,2.45,260718,,E*40
$GPGGA,115542.924,3554.933,N,07402.636,W,0,04,0.6,,M,,M,,*78
$GPGLL,3554.933,N,07402.636,W,115543.924,V*35
$GPGSA,A,3,15,12,02,06,13,03,,,,,,,1.0,0.1,0.5*35
$GPGSV,2,1,06,15,60,356,54,12,05,069,63,02,25,047,71,06,56,308,24*7B
$GPGSV,2,2,06,13,21,042,64,03,26,316,25*7E
$GPRMC,115547.924,V,3554.931,N,07402.637,W,11.8,2.39,260718,,E*4A
$GPGGA,115548.924,3554.931,N,07402.637,W,0,04,0.1,,M,,M,,*76
$GPGLL,3554.931,N,07402.637,W,115549.924,V*3C
$GPGSA,A,2,15,12,02,06,13,03,,,,,,,0.6,0.3,0.7*33
$GPGSV,2,1,06,15,13,231,76,12,27,097,60,02,13,314,75,06,67,279,83*71
$GPGSV,2,2,06,13,77,235,16,03,32,121,87*71
$GPRMC,115553.924,V,3554.930,N,07402.638,W,92.1,2.35,260718,,E*4F
$GPGGA,115554.924,3554.930,N,07402.638,W,0,04,0.3,,M,,M,,*77
$GPGLL,3554.930,N,07402.638,W,115555.924,V*3F
$GPGSA,A,2,15,12,02,06,13,03,,,,,,,0.1,0.9,0.7*3E
$GPGSV,2,1,06,15,73,303,44,12,42,049,27,02,79,081,15,06,45,240,16*76
$GPGSV,2,2,06,13,08,007,70,03,79,061,86*71
$GPRMC,115559.924,V,3554.928,N,07402.639,W,28.6,2.36,260718,,E*48
$GPGGA,115600.924,3554.928,N,07402.639,W,0,04,0.9,,M,,M,,*77
$GPGLL,3554.928,N,07402.639,W,115601.924,V*35
$GPGSA,A,2,15,12,02,06,13,03,,,,,,,0.5,0.6,0.3*31
$GPGSV,2,1,06,15,74,275,46,12,16,001,54,02,12,075,47,06,65,248,44*76
$GPGSV,2,2,06,13,49,205,85,03,75,264,59*77
$GPRMC,115605.924,V,3554.927,N,07402.640,W,79.1,2.40,260718,,E*41
$GPGGA,115606.924,3554.927,N,07402.640,W,0,04,0.6,,M,,M,,*7F
$GPGLL,3554.927,N,07402.640,W,115607.924,V*32
$GPGSA,A,3,15,12,02,06,13,03,,,,,,,0.2,0.5,0.5*32
$GPGSV,2,1,06,15,30,274,78,12,38,352,39,02,39,271,42,06,88,111,59*72
$GPGSV,2,2,06,13,17,273,20,03,19,030,30*74
$GPRMC,115611.924,V,3554.926,N,07402.642,W,18.9,2.51,260718,,E*48
$GPGGA,115612.924,3554.926,N,07402.642,W,0,04,0.5,,M,,M,,*7A
$GPGLL,3554.926,N,07402.642,W,115613.924,V*34
$GPGSA,A,3,15,12,02,06,13,03,,,,,,,0.1,0.9,0.0*38
$GPGSV,2,1,06,15,50,098,15,12,28,258,16,02,40,273,52,06,07,098,32*7F
$GPGSV,2,2,06,13,68,082,22,03,54,123,72*7E
$GPRMC,115617.924,V,3554.924,N,07402.643,W,26.1,2.39,260718,,E*46
$GPGGA,115618.924,3554.924,N,07402.643,W,0,04,0.9,,M,,M,,*7F
$GPGLL,3554.924,N,07402.643,W,115619.924,V*3D
$GPGSA,A,3,15,12,02,06,13,03,,,,,,,0.5,0.3,0.4*32
$GPGSV,2,1,06,15,52,344,20,12,17,155,75,02,70,238,21,06,19,204,21*7C
$GPGSV,2,2,06,13,44,296,41,03,26,206,57*74
$GPRMC,115623.924,V,3554.923,N,07402.643,W,83.8,2.30,260718,,E*49
$GPGGA,115624.924,3554.923,N,07402.643,W,0,04,0.3,,M,,M,,*7D
$GPGLL,3554.923,N,07402.643,W,115625.924,V*35
$GPGSA,A,2,15,12,02,06,13,03,,,,,,,0.2,0.9,0.1*3B
$GPGSV,2,1,06,15,20,140,41,12,31,327,32,02,72,143,77,06,45,308,17*77
$GPGSV,2,2,06,13,62,113,53,03,84,022,47*70
$GPRMC,115629.924,V,3554.921,N,07402.644,W,41.3,2.25,260718,,E*47
$GPGGA,115630.924,3554.921,N,07402.644,W,0,04,0.9,,M,,M,,*77
$GPGLL,3554.921,N,07402.644,W,115631.924,V*35
$GPGSA,A,3,15,12,02,06,13,03,,,,,,,0.4,0.7,0.7*34
$GPGSV,2,1,06,15,86,348,48,12,25,220,43,02,18,096,86,06,63,225,85*77
$GPGSV,2,2,06,13,81,145,36,03,19,248,43*73
$GPRMC,115635.924,V,3554.919,N,07402.645,W,43.0,2.32,260718,,E*47
$GPGGA,115636.924,3554.919,N,07402.645,W,0,04,0.7,,M,,M,,*75
$GPGLL,3554.919,N,07402.645,W,115637.924,V*39
$GPGSA,A,2,15,12,02,06,13,03,,,,,,,0.3,0.9,0.8*33
$GPGSV,2,1,06,15,32,253,31,12,19,338,54,02,81,216,41,06,41,283,72*79
$GPGSV,2,2,06,13,63,024,58,03,86,324,78*74
$GPRMC,115641.924,V,3554.918,N,07402.646,W,50.2,2.26,260718,,E*43
$GPGGA,115642.924,3554.918,N,07402.646,W,0,04,0.9,,M,,M,,*7A
$GPGLL,3554.918,N,07402.646,W,115643.924,V*38
$GPGSA,A,2,15,12,02,06,13,03,,,,,,,0.3,0.5,0.7*30
$GPGSV,2,1,06,15,12,220,21,12,49,061,39,02,07,318,49,06,31,187,30*70
$GPGSV,2,2,06,13,28,211,41,03,32,294,16*7A
$GPRMC,115647.924,V,3554.916,N,07402.647,W,7.7,2.34,260718,,E*7E
$GPGGA,115648.924,3554.916,N,07402.647,W,0,04,0.5,,M,,M,,*73
$GPGLL,3554.916,N,07402.647,W,115649.924,V*3D
$GPGSA,A,2,15,12,02,06,13,03,,,,,,,1.0,0.9,0.8*31
$GPGSV,2,1,06,15,24,060,71,12,82,170,38,02,53,053,63,06,82,231,55*71
$GPGSV,2,2,06,13,26,012,36,03,06,191,76*72
